{
  "type": "FeatureCollection",
  "features": [
    {
      "type": "Feature",
      "geometry": { "type": "Point", "coordinates": [79.0400, 21.1700] },
      "properties": {
        "name": "Shivam Nair",
        "patta_no": "A123",
        "area_ha": 1.75,
        "status": "Pending",
        "village": "Bhagatpur",
        "district": "Nagpur",
        "state": "Maharashtra",
        "claim_type": "IFR"
      }
    },
    {
      "type": "Feature",
      "geometry": { "type": "Point", "coordinates": [79.0500, 21.1800] },
      "properties": {
        "name": "Kumar Yadav",
        "patta_no": "B456",
        "area_ha": 4.5,
        "status": "Granted",
        "village": "Rampur",
        "district": "Nagpur",
        "state": "Maharashtra",
        "claim_type": "CFR"
      }
    },
    {
      "type": "Feature",
      "geometry": { "type": "Point", "coordinates": [79.0600, 21.1600] },
      "properties": {
        "name": "Radha Prasad",
        "patta_no": "C789",
        "area_ha": 1.2,
        "status": "Pending",
        "village": "Kishorpur",
        "district": "Nagpur",
        "state": "Maharashtra",
        "claim_type": "IFR"
      }
    },
    {
      "type": "Feature",
      "geometry": { "type": "Point", "coordinates": [79.0300, 21.1900] },
      "properties": {
        "name": "Sunita Devi",
        "patta_no": "D101",
        "area_ha": 2.8,
        "status": "Granted",
        "village": "Bhagatpur",
        "district": "Nagpur",
        "state": "Maharashtra",
        "claim_type": "CR"
      }
    },
    {
      "type": "Feature",
      "geometry": { "type": "Point", "coordinates": [79.0700, 21.1500] },
      "properties": {
        "name": "Ravi Kumar",
        "patta_no": "E202",
        "area_ha": 3.2,
        "status": "Pending",
        "village": "Sonegaon",
        "district": "Wardha",
        "state": "Maharashtra",
        "claim_type": "IFR"
      }
    },
    {
      "type": "Feature",
      "geometry": { "type": "Point", "coordinates": [79.0800, 21.2000] },
      "properties": {
        "name": "Meera Singh",
        "patta_no": "F303",
        "area_ha": 1.9,
        "status": "Granted",
        "village": "Deoli",
        "district": "Wardha", 
        "state": "Maharashtra",
        "claim_type": "CFR"
      }
    }
  ]
}